{
  "type": "FeatureCollection",
  "features": [
    {
      "type": "Feature",
      "geometry": {"type": "Point","coordinates": [10.68701, 45.61090]},
      "properties": {"name": "A & O Torri del Benaco", "telefono": "+39 045 6290142", "sito": "https://www.google.com/maps/place/A%26O+Torri+del+Benaco/@45.6108706,10.6870824,129a,35y,0.32t/data=!3m2!1e3!5s0x4781f3136ff12707:0x720489b23ae24ae5!4m6!3m5!1s0x4781f3136f955555:0x43ffe77941092743!8m2!3d45.6108877!4d10.6870066!16s%2Fg%2F11f3r1s5bt?authuser=0&entry=ttu&g_ep=EgoyMDI1MTAwOC4wIKXMDSoASAFQAw%3D%3D"}},
    {
      "type": "Feature",
      "geometry": {"type": "Point","coordinates": [10.68632, 45.61082]},
      "properties": {"name": "La Rocca","sito": "https://www.google.com/maps/place/La+Rocca/@45.6106405,10.6865357,20.5z/data=!4m6!3m5!1s0x4781f323faf99675:0xd6038e5e10295bed!8m2!3d45.6108091!4d10.6863253!16s%2Fg%2F11gh8c87rk?authuser=0&entry=ttu&g_ep=EgoyMDI1MTAwOC4wIKXMDSoASAFQAw%3D%3D"}},

    {
      "type": "Feature",
      "geometry": {"type": "Point","coordinates": [10.68689,45.61014]},
      "properties": {"name": "Frutta & Verdura","icona": "üçâüçÖ","telefono": "+39 0456926366", "sito": "https://www.google.com/maps/place/Consolini+Luca/@45.6101002,10.6869288,83m/data=!3m1!1e3!4m6!3m5!1s0x4781f313716bac13:0xf2fa4856a9213d9f!8m2!3d45.6101283!4d10.6869019!16s%2Fg%2F1hc3zpnj0?authuser=0&entry=ttu&g_ep=EgoyMDI1MTAwOC4wIKXMDSoASAFQAw%3D%3D"}},

    {
      "type": "Feature",
      "geometry": {"type": "Point","coordinates": [ 10.686901504070692,45.61026600641673]},
      "properties": {"name": "La Vineria", "icona": "üçæ üç∑" , "telefono": "328 8653489", "sito": "https://www.google.com/maps/place/La+Vineria/@45.6102879,10.6867659,40m/data=!3m1!1e3!4m6!3m5!1s0x4781f313766af3a9:0xecfa8b7a77887882!8m2!3d45.6102676!4d10.6869188!16s%2Fg%2F11ggn5m23h?authuser=0&entry=ttu&g_ep=EgoyMDI1MTAxNC4wIKXMDSoASAFQAw%3D%3D"}},

    {
      "type": "Feature",
      "geometry": {"type": "Point","coordinates": [10.74285,45.58479]},
      "properties": {"name": "Supermercato Famila", "telefono": "+39 045 2219500", "sito": "https://www.google.com/maps/place/Famila/@45.5847848,10.7426638,171m/data=!3m2!1e3!5s0x4781f1809dcc9ecd:0xe90845211cccf107!4m6!3m5!1s0x4781f22a54af0a89:0x9fc531855fad6baa!8m2!3d45.5847717!4d10.7428698!16s%2Fg%2F1tkmldkd?authuser=0&entry=ttu&g_ep=EgoyMDI1MTAyMC4wIKXMDSoASAFQAw%3D%3D"}},

    {
      "type": "Feature",
      "geometry": {"type": "Point","coordinates": [10.68746,45.61110]},
      "properties": {"name": "Bonetti Home","icona":"üî® üõ†Ô∏è ", "telefono": "+39 045 6296038", "sito": "https://www.google.com/maps/place/Bonetti+Hermes/@45.6110986,10.6878291,106m/data=!3m1!1e3!4m6!3m5!1s0x4781f313693b3e3b:0x389e2f551aedf4db!8m2!3d45.6111009!4d10.687303!16s%2Fg%2F1tmgb90m?authuser=0&entry=ttu&g_ep=EgoyMDI1MTAyMC4wIKXMDSoASAFQAw%3D%3D"}},

    {
      "type": "Feature",
      "geometry": {"type": "Point","coordinates": [10.71628,45.57583]},
      "properties": {"name": "Ferramenta Zeus", "icona":"üî® üõ†Ô∏è ", "telefono": "+39 045 7255373", "sito": "https://www.google.com/maps/place/Ferramenta+Zeus/@45.5757098,10.715209,643m/data=!3m3!1e3!4b1!5s0x4781f23f477d8a2b:0xa35840f46743b08f!4m6!3m5!1s0x4781f23f447ec9b5:0xc06637d67afebbdc!8m2!3d45.5757082!4d10.7162871!16s%2Fg%2F11b6jgtd6j?authuser=0&entry=ttu&g_ep=EgoyMDI1MTAyMC4wIKXMDSoASAFQAw%3D%3D"}}
    


]
}